{
  "monuments": [
    {
      "id": 3105,
      "name": "Jackson Street",
      "city": "Rock Hill",
      "state": "SC",
      "county": "York",
      "zip_code": null,
      "latitude": "34.927620000",
      "longitude": "-81.016417000",
      "symbol_type": "highway_or_roadway",
      "petition_link": "",
      "approved": true,
      "removed": false,
      "photo": "",
      "honoree": 46,
      "contacts": []
    },
    {
      "id": 3106,
      "name": "North Confederate Avenue",
      "city": "Rock Hill",
      "state": "SC",
      "county": "York",
      "zip_code": null,
      "latitude": "34.927692000",
      "longitude": "-81.018415000",
      "symbol_type": "highway_or_roadway",
      "petition_link": "",
      "approved": true,
      "removed": false,
      "photo": "",
      "honoree": null,
      "contacts": []
    },
    {
      "id": 3107,
      "name": "Pendleton Street",
      "city": "Rock Hill",
      "state": "SC",
      "county": "York",
      "zip_code": null,
      "latitude": "34.925463000",
      "longitude": "-81.019065000",
      "symbol_type": "highway_or_roadway",
      "petition_link": "",
      "approved": true,
      "removed": false,
      "photo": "",
      "honoree": 36,
      "contacts": []
    },
    {
      "id": 3108,
      "name": "Pickens Street",
      "city": "Rock Hill",
      "state": "SC",
      "county": "York",
      "zip_code": null,
      "latitude": "34.927058000",
      "longitude": "-81.019278000",
      "symbol_type": "highway_or_roadway",
      "petition_link": "",
      "approved": true,
      "removed": false,
      "photo": "",
      "honoree": 59,
      "contacts": []
    },
    {
      "id": 3109,
      "name": "Jackson Street",
      "city": "Bolivar",
      "state": "TN",
      "county": "Hardeman",
      "zip_code": null,
      "latitude": "35.257012000",
      "longitude": "-88.986974000",
      "symbol_type": "highway_or_roadway",
      "petition_link": "",
      "approved": true,
      "removed": false,
      "photo": "https://media3.s-nbcnews.com/j/newscms/2020_24/3387301/200611-baden-powell-mc-1427_72675f6530c34b480dda7198f26e39e5.fit-2000w.JPG",
      "honoree": 46,
      "contacts": []
    },
    {
      "id": 3110,
      "name": "Longstreet Drive",
      "city": "Dandridge",
      "state": "TN",
      "county": "Jefferson",
      "zip_code": null,
      "latitude": "36.048455000",
      "longitude": "-83.403162000",
      "symbol_type": "highway_or_roadway",
      "petition_link": "",
      "approved": true,
      "removed": false,
      "photo": "",
      "honoree": 91,
      "contacts": []
    }
  ]
}
